[
    {
      "name": "Subway",
      "address": "3200 Cold Spring Rd, Indianapolis, IN 46222",
      "latitude": 39.816492844612974,
      "longitude": -86.20167201176828,
      "milesFromCampus": 0.01,
      "price": "$",
      "dateInfoEntered": "2025-04-16",
      "link": "https://restaurants.subway.com/united-states/in/indianapolis/3200-cold-spring"
    },
    {
      "name": "Chick-fil-A",
      "address": "3200 Cold Spring Rd, Indianapolis, IN 46222",
      "latitude": 39.813844638485186,
      "longitude": -86.20255556126882,
      "milesFromCampus": 0.01,
      "price": "$",
      "dateInfoEntered": "2025-04-16",
      "link": "https://www.chick-fil-a.com/locations/in/marian-university"
    },
    {
      "name": "Burger King",
      "address": "2953 Lafayette Rd, Indianapolis, IN 46222",
      "latitude": 39.80954565019346,
      "longitude": -86.21900459760545,
      "milesFromCampus": 0.9,
      "price": "$",
      "dateInfoEntered": "2025-04-16",
      "link": "https://www.bk.com/store-locator/store/restaurant_6394"
    },
    {
      "name": "Fisher's Pizza Fish & Chicken",
      "address": "3117 W 30th St, Indianapolis, IN 46222",
      "latitude": 39.80962471676431,
      "longitude": -86.21195581999542,
      "milesFromCampus": 0.4,
      "price": "$",
      "dateInfoEntered": "2025-04-16",
      "link": "https://www.yelp.com/biz/fisher-s-pizza-fish-and-chicken-indianapolis"
    },
    {
      "name": "Rally's",
      "address": "3541 Lafayette Rd, Indianapolis, IN 46222",
      "latitude": 39.8198931586047,
      "longitude": -86.23013842433605,
      "milesFromCampus": 1.8,
      "price": "$",
      "dateInfoEntered": "2025-04-16",
      "link": "https://locations.checkersandrallys.com/in/indianapolis/3541-lafayette-road"
    },
    {
      "name": "McDonald's",
      "address": "4545 W 38th St, Indianapolis, IN 46254",
      "latitude": 39.82370539585971,
      "longitude": -86.23695247858019,
      "milesFromCampus": 2.5,
      "price": "$",
      "dateInfoEntered": "2025-04-16",
      "link": "https://www.mcdonalds.com/us/en-us/location/in/indianapolis/4545-w-38th-st/885.html"
    },
    {
      "name": "R&R Extreme Wings Bar and Grill",
      "address": "4545 W 38th St, Indianapolis, IN 46254",
      "latitude": 39.82339809483767,
      "longitude": -86.23484477356604,
      "milesFromCampus": 2.4,
      "price": "$",
      "dateInfoEntered": "2025-04-16",
      "link": "https://rrextremewings.com/"
    },
    {
      "name": "Taco Bell",
      "address": "4502 W 38th St, Indianapolis, IN 46254",
      "latitude": 39.82465710301705,
      "longitude": -86.23586618392902,
      "milesFromCampus": 2.5,
      "price": "$",
      "dateInfoEntered": "2025-04-16",
      "link": "https://locations.tacobell.com/in/indianapolis/4502-w--38th-street.html"
    },
    {
      "name": "KFC",
      "address": "4528 W 38th St, Indianapolis, IN 46254",
      "latitude": 39.82503819417079,
      "longitude": -86.23646490946011,
      "milesFromCampus": 2.5,
      "price": "$",
      "dateInfoEntered": "2025-04-16",
      "link": "https://locations.kfc.com/in/indianapolis/4528-w-38th-st"
    },
    {
      "name": "Church's Texas Chicken",
      "address": "3970 Lafayette Rd, Indianapolis, IN 46255",
      "latitude": 39.82707452502057,
      "longitude": -86.2383555469304,
      "milesFromCampus": 2.6,
      "price": "$",
      "dateInfoEntered": "2025-04-16",
      "link": "https://locations.churchs.com/in/indianapolis/3970-lafayette-road"
    },
    {
      "name": "La Costenita",
      "address": "4697 W 30th St, Indianapolis, IN 46222",
      "latitude": 39.80921133963991,
      "longitude": -86.23809838032237,
      "milesFromCampus": 1.8,
      "price": "$",
      "dateInfoEntered": "2025-04-16",
      "link": "https://www.yelp.com/biz/la-costenita-indianapolis-2"
    },
    {
      "name": "Nick's Chili Parlor",
      "address": "2621 Lafayette Rd, Indianapolis, IN 46222",
      "latitude": 39.80522282036867,
      "longitude": -86.21512556181106,
      "milesFromCampus": 1.4,
      "price": "$",
      "dateInfoEntered": "2025-04-16",
      "link": "https://www.nickschiliparlor.com/"
    },
    {
      "name": "California Burger",
      "address": "3502 W 16th St, Indianapolis, IN 46222",
      "latitude": 39.7886243802562,
      "longitude": -86.21868304965773,
      "milesFromCampus": 2.3,
      "price": "$",
      "dateInfoEntered": "2025-04-16",
      "link": "https://www.californiaburgerinc.com/"
    },
    {
      "name": "McDonald's",
      "address": "3435 W 16th St, Indianapolis, IN 46222",
      "latitude": 39.787832702921,
      "longitude": -86.2177680271406,
      "milesFromCampus": 2.2,
      "price": "$",
      "dateInfoEntered": "2025-04-16",
      "link": "https://www.mcdonalds.com/us/en-us/location/in/indianapolis/3435-w-16th-st/993.html"
    },
    {
      "name": "Burger King",
      "address": "3401 W 16th St, Indianapolis, IN 46222",
      "latitude": 39.79000689451128,
      "longitude": -86.21516715913002,
      "milesFromCampus": 2.2,
      "price": "$",
      "dateInfoEntered": "2025-04-16",
      "link": "https://www.tripadvisor.com/Restaurant_Review-g37209-d15249487-Reviews-Burger_King-Indianapolis_Indiana.html?m=32908"
    },
    {
      "name": "Popeyes Louisiana Kitchen",
      "address": "3021 W 16th St, Indianapolis, IN 46222",
      "latitude": 39.789516387021074,
      "longitude": -86.20965584558701,
      "milesFromCampus": 2.0,
      "price": "$",
      "dateInfoEntered": "2025-04-16",
      "link": "https://www.popeyes.com/store-locator/store/restaurant_84539?utm_source=yext&utm_medium=referral&utm_campaign=organic-local-listings"
    },
    {
      "name": "Bar-B-Q Heaven",
      "address": "2515 Doctor M.L.K. Jr St, Indianapolis, IN 46208",
      "latitude": 39.80346928538539,
      "longitude": -86.17034978890716,
      "milesFromCampus": 3.4,
      "price": "$",
      "dateInfoEntered": "2025-04-16",
      "link": "https://barbqueheaven1952.com/menu"
    },
    {
      "name": "Dairy Queen",
      "address": "3740 W Dr Martin Luther King Jr St, Indianapolis, IN 46208",
      "latitude": 39.82022632291263,
      "longitude": -86.17887080244417,
      "milesFromCampus": 2.0,
      "price": "$",
      "dateInfoEntered": "2025-04-16",
      "link": "https://www.dairyqueen.com/en-us/locations/in/indianapolis/3740-martin-luther-king-jr-st/2768/"
    }
  ]
