[
    {
        "address": "3200 Cold Spring Rd, Indianapolis, IN 46222",
        "dateInfoEntered": "2025-04-16",
        "latitude": 39.816492844612974,
        "longitude": -86.20167201176828,
        "milesFromCampus": 0.01,
        "name": "Subway",
        "price": "$"
    },
    {
        "address": "3200 Cold Spring Rd, Indianapolis, IN 46222",
        "dateInfoEntered": "2025-04-16",
        "latitude": 39.813844638485186,
        "longitude": -86.20255556126882,
        "milesFromCampus": 0.01,
        "name": "Chick-fil-A",
        "price": "$"
    },
    {
        "address": "2953 Lafayette Rd, Indianapolis, IN 46222",
        "dateInfoEntered": "2025-04-16",
        "latitude": 39.80954565019346,
        "longitude": -86.21900459760545,
        "milesFromCampus": 0.9,
        "name": "Burger King",
        "price": "$"
    },
    {
        "address": "3117 W 30th St, Indianapolis, IN 46222",
        "dateInfoEntered": "2025-04-16",
        "latitude": 39.80962471676431,
        "longitude": -86.21195581999542,
        "milesFromCampus": 0.4,
        "name": "Fisher's Pizza Fish & Chicken",
        "price": "$"
    },
    {
        "address": "3541 Lafayette Rd, Indianapolis, IN 46222",
        "dateInfoEntered": "2025-04-16",
        "latitude": 39.8198931586047,
        "longitude": -86.23013842433605,
        "milesFromCampus": 1.8,
        "name": "Rally's",
        "price": "$"
    },
    {
        "address": "4545 W 38th St, Indianapolis, IN 46254",
        "dateInfoEntered": "2025-04-16",
        "latitude": 39.82370539585971,
        "longitude": -86.23695247858019,
        "milesFromCampus": 2.5,
        "name": "McDonalds",
        "price": "$"
    },
    {
        "address": "4545 W 38th St, Indianapolis, IN 46254",
        "dateInfoEntered": "2025-04-16",
        "latitude": 39.82339809483767,
        "longitude": -86.23484477356604,
        "milesFromCampus": 2.4,
        "name": "R&R Extreme Wings Bar and Grill",
        "price": "$"
    },
    {
        "address": "4502 W 38th St, Indianapolis, IN 46254",
        "dateInfoEntered": "2025-04-16",
        "latitude": 39.82465710301705,
        "longitude": -86.23586618392902,
        "milesFromCampus": 2.5,
        "name": "Taco Bell",
        "price": "$"
    },
    {
        "address": "4528 W 38th St, Indianapolis, IN 46254",
        "dateInfoEntered": "2025-04-16",
        "latitude": 39.82503819417079,
        "longitude": -86.23646490946011,
        "milesFromCampus": 2.5,
        "name": "KFC",
        "price": "$"
    },
    {
        "address": "3970 Lafayette Rd, Indianapolis, IN 46255",
        "dateInfoEntered": "2025-04-16",
        "latitude": 39.82707452502057,
        "longitude": -86.2383555469304,
        "milesFromCampus": 2.6,
        "name": "Church's Texas Chicken",
        "price": "$"
    },
    {
        "address": "4697 W 30th St, Indianapolis, IN 46222",
        "dateInfoEntered": "2025-04-16",
        "latitude": 39.80921133963991,
        "longitude": -86.23809838032237,
        "milesFromCampus": 1.8,
        "name": "La Costenita",
        "price": "$"
    },
    {
        "address": "2621 Lafayette Rd, Indianapolis, IN 46222",
        "dateInfoEntered": "2025-04-16",
        "latitude": 39.80522282036867,
        "longitude": -86.21512556181106,
        "milesFromCampus": 1.4,
        "name": "Nick's Chili Parlor",
        "price": "$"
    },
    {
        "address": "3502 W 16th St, Indianapolis, IN 46222",
        "dateInfoEntered": "2025-04-16",
        "latitude": 39.7886243802562,
        "longitude": -86.21868304965773,
        "milesFromCampus": 2.3,
        "name": "California Burger",
        "price": "$"
    },
    {
        "address": "3435 W 16th St, Indianapolis, IN 46222",
        "dateInfoEntered": "2025-04-16",
        "latitude": 39.787832702921,
        "longitude": -86.2177680271406,
        "milesFromCampus": 2.2,
        "name": "McDonalds",
        "price": "$"
    },
    {
        "address": "3401 W 16th St, Indianapolis, IN 46222",
        "dateInfoEntered": "2025-04-16",
        "latitude": 39.79000689451128,
        "longitude": -86.21516715913002,
        "milesFromCampus": 2.2,
        "name": "Burger King",
        "price": "$"
    },
    {
        "address": "3021 W 16th St, Indianapolis, IN 46222",
        "dateInfoEntered": "2025-04-16",
        "latitude": 39.789516387021074,
        "longitude": -86.20965584558701,
        "milesFromCampus": 2.0,
        "name": "Popeyes Louisiana Kitchen",
        "price": "$"
    },
    {
        "address": "2515 Doctor M.L.K. Jr St, Indianapolis, IN 46208",
        "dateInfoEntered": "2025-04-16",
        "latitude": 39.80346928538539,
        "longitude": -86.17034978890716,
        "milesFromCampus": 3.4,
        "name": "Bar-B-Q Heaven",
        "price": "$"
    },
    {
        "address": "3740 W Dr Martin Luther King Jr St, Indianapolis, IN 46208",
        "dateInfoEntered": "2025-04-16",
        "latitude": 39.82022632291263,
        "longitude": -86.17887080244417,
        "milesFromCampus": 2.0,
        "name": "Dairy Queen",
        "price": "$"
    }
]
