[
  {
    "name": "Krannert Memorial Library",
    "address": "1400 E Hanna Ave, Indianapolis, IN 46227",
    "latitude": 39.7095,
    "longitude": -86.1345,
    "milesFromCampus": 0.0,
    "studyEnvironment": "Quiet",
    "hasWifi": true,
    "dateInfoEntered": "2025-05-03",
    "link": "https://uindy.edu/library"
  },
  {
    "name": "Schwitzer Student Center",
    "address": "1400 E Hanna Ave, Indianapolis, IN 46227",
    "latitude": 39.7096,
    "longitude": -86.1351,
    "milesFromCampus": 0.1,
    "studyEnvironment": "Moderate",
    "hasWifi": true,
    "dateInfoEntered": "2025-05-03",
    "link": "https://map.uindy.edu/?id=605&mrkIid=71622"
  },
  {
    "name": "Books & Brews - South Indy",
    "address": "3808 Shelby St, Indianapolis, IN 46227",
    "latitude": 39.7209,
    "longitude": -86.1174,
    "milesFromCampus": 1.2,
    "studyEnvironment": "Relaxed",
    "hasWifi": true,
    "dateInfoEntered": "2025-05-03",
    "link": "https://www.booksnbrews.com/"
  },
  {
    "name": "Garfield Park Library",
    "address": "2502 Shelby St, Indianapolis, IN 46203",
    "latitude": 39.7348,
    "longitude": -86.1371,
    "milesFromCampus": 1.6,
    "studyEnvironment": "Quiet",
    "hasWifi": true,
    "dateInfoEntered": "2025-05-03",
    "link": "https://www.indypl.org/locations/garfield-park"
  },
  {
    "name": "Fountain Square Library",
    "address": "1066 Virginia Ave, Indianapolis, IN 46203",
    "latitude": 39.7529,
    "longitude": -86.1411,
    "milesFromCampus": 2.4,
    "studyEnvironment": "Quiet",
    "hasWifi": true,
    "dateInfoEntered": "2025-05-03",
    "link": "https://www.visitindy.com/listing/fountain-square-branch-library/139568/"
  },
  {
    "name": "Calvin Fletcher's Coffee Company",
    "address": "647 Virginia Ave, Indianapolis, IN 46203",
    "latitude": 39.7635,
    "longitude": -86.1489,
    "milesFromCampus": 2.5,
    "studyEnvironment": "Moderate",
    "hasWifi": true,
    "dateInfoEntered": "2025-05-03",
    "link": "https://www.cfcoffeecompany.com/"
  },
  {
    "name": "UIndy Writing Lab",
    "address": "1400 E Hanna Ave, Indianapolis, IN 46227",
    "latitude": 39.7091,
    "longitude": -86.1342,
    "milesFromCampus": 0.1,
    "studyEnvironment": "Quiet",
    "hasWifi": true,
    "dateInfoEntered": "2025-05-03",
    "link": "https://uindy.edu/writing-lab"
  },
  {
    "name": "Mathspace Tutoring Center",
    "address": "1400 E Hanna Ave, Indianapolis, IN 46227",
    "latitude": 39.7099,
    "longitude": -86.1347,
    "milesFromCampus": 0.1,
    "studyEnvironment": "Moderate",
    "hasWifi": true,
    "dateInfoEntered": "2025-05-03",
    "link": "https://uindy.edu/cas/mathematics/math-tutoring-lab-hours"
  },
  {
    "name": "Lincoln's Coffee House",
    "address": "2231 Shelby St, Indianapolis, IN 46203",
    "latitude": 39.7412,
    "longitude": -86.1417,
    "milesFromCampus": 2.0,
    "studyEnvironment": "Relaxed",
    "hasWifi": true,
    "dateInfoEntered": "2025-05-03",
    "link": "https://www.dathouse.org/lincolnlanecoffeeco"
  },
  {
    "name": "Pleasant Run Branch Library",
    "address": "1201 N Arlington Ave, Indianapolis, IN 46219",
    "latitude": 39.7870,
    "longitude": -86.0754,
    "milesFromCampus": 2.3,
    "studyEnvironment": "Quiet",
    "hasWifi": true,
    "dateInfoEntered": "2025-05-03",
    "link": "https://www.indypl.org/locations"
  },
  {
    "name": "Shelby Library Branch",
    "address": "2502 Shelby St, Indianapolis, IN 46203",
    "latitude": 39.7400,
    "longitude": -86.1398,
    "milesFromCampus": 1.9,
    "studyEnvironment": "Quiet",
    "hasWifi": true,
    "dateInfoEntered": "2025-05-03",
    "link": "https://www.indypl.org/locations/garfield-park"
  },
  {
    "name": "UIndy Good Hall Study Lounge",
    "address": "1400 E Hanna Ave, Indianapolis, IN 46227",
    "latitude": 39.7092,
    "longitude": -86.1338,
    "milesFromCampus": 0.1,
    "studyEnvironment": "Quiet",
    "hasWifi": true,
    "dateInfoEntered": "2025-05-03",
    "link": "https://uindy.edu/giving/good-hall"
  },
  {
    "name": "Beech Grove Public Library",
    "address": "1102 Main St, Beech Grove, IN 46107",
    "latitude": 39.7212,
    "longitude": -86.0894,
    "milesFromCampus": 2.5,
    "studyEnvironment": "Quiet",
    "hasWifi": true,
    "dateInfoEntered": "2025-05-03",
    "link": "https://www.indypl.org/locations/beech-grove"
  },
  {
    "name": "Garfield Park Coffee Shop",
    "address": "2136 Shelby St, Indianapolis, IN 46203",
    "latitude": 39.7438,
    "longitude": -86.1415,
    "milesFromCampus": 2.2,
    "studyEnvironment": "Relaxed",
    "hasWifi": true,
    "dateInfoEntered": "2025-05-03",
    "link": "https://do317.com/venues/garfield-park-eatery-coffee"
  },
  {
    "name": "Hornet Park Community Center",
    "address": "5245 Hornet Ave, Beech Grove, IN 46107",
    "latitude": 39.7178,
    "longitude": -86.1028,
    "milesFromCampus": 1.8,
    "studyEnvironment": "Moderate",
    "hasWifi": true,
    "dateInfoEntered": "2025-05-03",
    "link": "https://www.hornetparkcommunitycenter.com/"
  }
]
